{"page":1,"per_page":50,"data":[{"id":90,"name":"Paul Lake Campground","type":"Campground","latitude":50.7490433,"longitude":-120.1134191,"description":"","city":"Area P (Rivers and the Peaks)","state":"British Columbia","country":"CA","logo":"campground.png","tags":null,"website":"https:\/\/www.env.gov.bc.ca\/bcparks\/explore\/parkpgs\/paul_lk\/","phone":"+1-250-320-9305","source":"mysql","logo_status":"ok","logo_missing":false},{"id":97,"name":"Lamplighter Campground","type":"Campground","latitude":51.0007449,"longitude":-118.2217435,"description":"","city":"Revelstoke","state":"British Columbia","country":"CA","logo":"campground.png","tags":null,"website":"http:\/\/www.revelstokecc.bc.ca\/lamplighter\/","phone":"+1 250-837-3385","source":"mysql","logo_status":"ok","logo_missing":false},{"id":72,"name":"Coquihalla Campground","type":"Campground","latitude":49.3799437,"longitude":-121.4251043,"description":"","city":"Hope","state":"British Columbia","country":"CA","logo":"campground.png","tags":null,"website":"https:\/\/www.coquihallacampground.ca\/","phone":"+1-604-869-7119","source":"mysql","logo_status":"ok","logo_missing":false}],"debug":{"query":"SELECT id, name, type, latitude, longitude, '' AS description, city, state, country, logo, tags, website, phone FROM locations WHERE (type = :_type OR (tags_text LIKE :_cgp1 OR tags_text LIKE :_cgp2)) AND country = :_country AND state = :_state ORDER BY created_at DESC LIMIT :lim OFFSET :off","bindings":{":_type":"Campground",":_cgp1":"%\"tourism\":\"camp_site\"%",":_cgp2":"%\"tourism\"=>\"caravan_site\"%",":_country":"CA",":_state":"British Columbia"}}}